City_ID,City,Country,Max Temp,Current Description,Lat,Lng,Hotel Name
14,Shimoda,JP,79.11,overcast clouds,34.6667,138.95,Shimoda Tokyu Hotel
21,Puerto Ayora,EC,78.76,overcast clouds,-0.7393,-90.3518,Finch Bay Galapagos Hotel
30,Kapaa,US,82.72,few clouds,22.0752,-159.319,Sheraton Kauai Coconut Beach Resort
44,Qrendi,MT,80.11,clear sky,35.8347,14.4583,M'Anglu
53,Lorengau,PG,81.1,overcast clouds,-2.0226,147.2712,Lorengau Harbourside Hotel
54,Neyshabur,IR,78.12,clear sky,36.2133,58.7958,Amiran Hotel & Commercial Complex
67,Itarema,BR,78.08,broken clouds,-2.9248,-39.9167,"Sea Lounge! Bar, Club & Restaurant"
78,Kavieng,PG,81.77,light rain,-2.5744,150.7967,Nusa Island Retreat
82,Bathsheba,BB,84.81,scattered clouds,13.2167,-59.5167,Atlantis Hotel
95,Kadambur,IN,79.47,broken clouds,8.9833,77.8667,
98,Komsomolskiy,UZ,81.32,clear sky,40.4272,71.7189,Ikathouse
107,Liling,CN,78.37,light rain,27.6667,113.5,Shangri-La Hotel
115,Barmer,IN,81.77,light rain,25.75,71.3833,Jain Dharamshala
124,Marsh Harbour,BS,83.61,clear sky,26.5412,-77.0636,Abaco Beach Resort
126,Pakhtakoron,TJ,79.7,clear sky,40.1571,68.7466,
130,Mandapam,IN,82.15,broken clouds,9.2833,79.1167,Tanvi Chachaa Chalet
132,Waddan,LY,79.79,clear sky,29.1614,16.139,محل الشريف محمد العايب
136,Digby,CA,81.55,clear sky,44.6169,-65.7655,Digby Pines Golf Resort and Spa
137,Kinablangan,PH,78.3,overcast clouds,7.6947,126.5503,Morales Eatery and Lodging House
141,Auki,SB,81.7,overcast clouds,-8.7676,160.7034,Auki Motel
142,Hithadhoo,MV,80.94,overcast clouds,-0.6,73.0833,Scoop Guest House
150,Galle,LK,78.44,overcast clouds,6.0367,80.217,Amangalla
155,Wad Rawah,SD,78.03,light rain,15.1603,33.1397,حوش جلي ودراوة
156,Alugan,PH,81.45,moderate rain,12.2188,125.4808,JM Lodge
159,Banda Aceh,ID,79.99,overcast clouds,5.5577,95.3222,OYO 884 Rumoh PMI Hotel
160,Katsuura,JP,78.82,broken clouds,35.1333,140.3,Katsuura Hotel Mikazuki
162,Georgetown,MY,80.89,few clouds,5.4112,100.3354,Cititel Penang
174,Nanakuli,US,84.15,broken clouds,21.3906,-158.1547,Camp Pālehua
183,Argos,GR,79.29,clear sky,37.6333,22.7333,Hotel Mycenae
189,Shenjiamen,CN,78.49,broken clouds,29.9576,122.298,Jinjiang Inn Zhoushan Putuo Shenjiamen
192,Luganville,VU,81.19,scattered clouds,-15.5333,167.1667,The Espiritu Hotel
194,Gat,IL,79.48,clear sky,31.61,34.7642,OlusHome
210,Tual,ID,78.6,overcast clouds,-5.6667,132.75,Grand Vilia Hotel
212,Kavaratti,IN,81.05,light rain,10.5669,72.642,Green leaf
216,Sapa,PH,80.69,broken clouds,5.1544,120.3241,
219,Saint-Georges,GD,80.28,scattered clouds,12.0564,-61.7485,Radisson Grenada Beach Resort
243,Butaritari,KI,81.28,light rain,3.0707,172.7902,Isles Sunset Lodge
249,Kieta,PG,81.55,overcast clouds,-6.2167,155.6333,Uruna Bay Retreat
253,Myanaung,MM,80.65,light rain,18.2833,95.3167,Taung Hlay Khar
256,Giddarbaha,IN,81.79,overcast clouds,30.2,74.6667,panchayti dharamshala gidderbaha
259,Lufilufi,WS,83.98,light rain,-13.8745,-171.5986,Leuaina Beach Resort and Spa
263,Fukue,JP,80.87,light rain,32.6881,128.8419,Goto Guesthouse Utojuku & SA Car Rental
277,San Policarpo,PH,81.99,moderate rain,12.1791,125.5072,Agapita M. Nicart
286,Ciudad Bolivar,VE,84.72,broken clouds,8.1222,-63.5497,Hotel Edi
292,Samarai,PG,80.94,scattered clouds,-10.6167,150.6667,Nuli Sapi
295,Guhagar,IN,78.39,broken clouds,17.4842,73.1929,Hotel Seawinds
301,Bemidji,US,84.06,clear sky,47.4736,-94.8803,Hampton Inn & Suites Bemidji
316,Mahibadhoo,MV,80.67,overcast clouds,3.7833,72.9667,Omadhoo Inn
320,Muroto,JP,79.27,overcast clouds,33.2833,134.15,Oota Ryokan
328,Kabalo,CD,78.53,scattered clouds,-6.05,26.9167,
337,Oeiras Do Para,BR,80.98,broken clouds,-2.0031,-49.8544,Araticu Soft Hotel
348,Icod De Los Vinos,ES,83.34,clear sky,28.3724,-16.7119,Hotel El Patio
352,Goure,NE,79.23,overcast clouds,13.9835,10.2704,
356,Djibo,BF,84.83,overcast clouds,14.1022,-1.6306,Centre Des Ressources DPENA
364,Jibuti,DJ,84.36,overcast clouds,11.5,42.5,Orchid Main Camp Goubet
367,Sioux Lookout,CA,78.87,few clouds,50.1001,-91.917,Knobby's Fly-In Camps
369,Puerto Ayacucho,VE,80.53,broken clouds,5.6639,-67.6236,Posada Turistica Manapiare
372,San Julian,MX,84.45,overcast clouds,21.0167,-102.1667,La Nueva España
374,Haldibari,IN,78.62,heavy intensity rain,26.3333,88.7667,Rahul and Debika
381,Manbij,SY,78.15,clear sky,36.5281,37.9549,Manbej City Hotel
393,Puerto Cabello,VE,80.71,few clouds,10.4731,-68.0125,Las Palmeras
394,Kahului,US,82.98,scattered clouds,20.8947,-156.47,Maui Seaside Hotel
403,Alcudia,ES,84.2,clear sky,39.8532,3.1214,Zafiro Tropic
411,Khandela,IN,82.89,overcast clouds,27.6,75.5,Castle Khandela
412,Kudahuvadhoo,MV,80.33,heavy intensity rain,2.6708,72.8944,Niyama Private Islands Maldives
414,Toufen,TW,82.36,broken clouds,24.6865,120.9127,Garden Motel
421,Ergani,TR,78.6,clear sky,38.2653,39.7621,Serkan Hotel
423,Ternate,ID,79.93,overcast clouds,0.8,127.4,Sahid Bela Ternate Hotel
428,Janesville,US,83.14,scattered clouds,42.6828,-89.0187,"Holiday Inn Express Janesville-I-90 & US Hwy 14, an IHG Hotel"
429,Bonfim,BR,80.29,overcast clouds,3.0833,-59.95,
431,Najran,SA,79.83,overcast clouds,17.4924,44.1277,محمد هادي ال فطيح
433,Isangel,VU,79.14,broken clouds,-19.55,169.2667,Tanna Lodge
439,Guerrero Negro,MX,83.34,few clouds,27.9769,-114.0611,"Casa Laguna, Bed & Breakfast"
444,Tha Mai,TH,80.08,moderate rain,12.6214,102.0048,Khowbuysi View Resort
445,Sinnamary,GF,78.06,clear sky,5.3833,-52.95,ALETHEIA Appartement Sinnamary
447,Buala,SB,81.61,overcast clouds,-8.145,159.5921,Maringe Lagoon Lodge
457,Conceicao Do Araguaia,BR,80.92,clear sky,-8.2578,-49.2647,Tarumã Tropical Hotel
467,Cayenne,GF,82.44,scattered clouds,4.9333,-52.3333,Hôtel Le Dronmi
471,Tirunelveli,IN,80.87,overcast clouds,8.7333,77.7,Hotel Palmyra Grand Inn
473,Porbandar,IN,80.58,broken clouds,21.6422,69.6093,Lords Inn Porbandar
477,Bulungu,CD,79.68,broken clouds,-4.55,18.6,Maison MC Michel
484,Kirakira,SB,82.09,broken clouds,-10.4544,161.9205,SanBiz Lodge
488,Lubao,PH,78.57,overcast clouds,14.9167,120.55,Hacienda Gracia
491,Mangrol,IN,80.24,broken clouds,21.1167,70.1167,Hotel The Royal Honours
501,Mao,ES,81.16,clear sky,39.8885,4.2658,ARTIEM Capri
507,Catuday,PH,81.95,moderate rain,16.2923,119.8062,Benjie's Kubo & Cottages
515,Santa Rosa,PH,80.58,moderate rain,14.3122,121.1114,Erlyn’s Sta Rosa City Home
523,Praia,CV,79.34,broken clouds,14.9215,-23.5087,LT Aparthotel
525,Chavakachcheri,LK,79.66,few clouds,9.6579,80.1643,Muslim hotel முஸ்லிம் ஹோட்டல்
535,Havelock,US,84.15,scattered clouds,34.8791,-76.9013,Sherwood Motel
537,Manokwari,ID,78.53,overcast clouds,-0.8667,134.0833,Swiss Belhotel Manokwari
543,Mantua,IT,83.44,clear sky,45.1667,10.7833,Hotel la Favorita
544,Aden,YE,83.05,overcast clouds,12.7794,45.0367,Sama Emirate Hotel
547,Shantipur,IN,81.01,overcast clouds,23.25,88.4667,Ganesh Avenue
552,Nicoya,CR,78.8,overcast clouds,10.1483,-85.452,Las Cabinas Del Sueño
565,Nortelandia,BR,81.16,overcast clouds,-14.4547,-56.8028,Pousada e Restaurante Santana
572,Vaitape,PF,78.01,clear sky,-16.5167,-151.75,Conrad Bora Bora Nui
574,Sept-Iles,CA,79.05,scattered clouds,50.2001,-66.3821,Comfort Inn
580,Ahuimanu,US,83.91,light rain,21.4447,-157.8378,Paradise Bay Resort
583,Honiara,SB,82.69,broken clouds,-9.4333,159.95,Heritage Park Hotel
589,Oyama,JP,84.58,overcast clouds,36.3,139.8,Toyoko Inn Oyama-eki Higashi-guchi No.1
598,Dangriga,BZ,83.57,broken clouds,16.9692,-88.2321,Chaleanor Hotel
604,Sola,VU,80.67,scattered clouds,-13.8833,167.55,Leumerus Bungalows
613,Jiazi,CN,81.64,scattered clouds,22.8779,116.067,Hotel Jin Hao
618,Scicli,IT,78.91,few clouds,36.7902,14.7014,Le Dimore Dei Venti
622,Hun,LY,80.4,clear sky,29.1268,15.9477,Alrwasi Hotel
626,Bra,IT,83.95,overcast clouds,44.703,7.8556,Hotel Cavalieri
629,Tikapur,NP,79.48,overcast clouds,28.5,81.1333,BANANA AGRO RESORT
631,Santa Marinella,IT,79.48,clear sky,42.0345,11.8536,"VILLA GREGORACI - b & b, guest houses, Santa Marinella"
634,Ariquemes,BR,81.34,clear sky,-9.9133,-63.0408,Hotel Sol Nascente - Ariquemes - RO
635,Pandan,PH,80.76,overcast clouds,14.0453,124.1694,Bonifacio Lodge
639,Kailua,US,84.18,broken clouds,21.4022,-157.7394,Sheffield House Bed & Breakfast
647,Valley,US,82.76,clear sky,45.1277,-116.1262,
652,Pak Kret,TH,81.99,moderate rain,13.913,100.4988,Buddy Oriental Riverside
654,Namatanai,PG,81.09,overcast clouds,-3.6667,152.4333,Seagulls Inn Namatani
669,Acandi,CO,81.57,overcast clouds,8.5063,-77.2778,Hotel Patio Bonito
672,Tambilil,PH,78.22,broken clouds,5.9622,124.6697,Wilfredo Sotto Home
676,Eirunepe,BR,83.77,clear sky,-6.6603,-69.8736,Hotel novo Acre & Comercial Aguiar
682,Goderich,CA,78.91,broken clouds,43.7501,-81.7165,Harmony Inn
683,Itaituba,BR,82.11,overcast clouds,-4.2761,-55.9836,Hotel Campos
684,Valverde Del Camino,ES,79.03,clear sky,37.5751,-6.7543,HOTEL MONTEAROMA (ulamde hotelera S.L.)
